[
  {
    "brand": "더블유짐",
    "name": "더블유짐",
    "address": "서울 강남구 봉은사로30길 24",
    "latitude": 37.50595195,
    "longitude": 127.03534897,
    "source_ref": "kakao:317382324",
    "raw_name": "더블유짐"
  },
  {
    "brand": "더블유짐",
    "name": "더블유짐 서울상도4호점",
    "address": "서울 동작구 상도로 311",
    "latitude": 37.50033812,
    "longitude": 126.95052646,
    "source_ref": "kakao:2037701607",
    "raw_name": "더블유짐 서울상도4호점"
  },
  {
    "brand": "더블유짐",
    "name": "더블유짐",
    "address": "경기 성남시 중원구 광명로 89",
    "latitude": 37.43524715,
    "longitude": 127.13818029,
    "source_ref": "kakao:458468144",
    "raw_name": "더블유짐"
  },
  {
    "brand": "더블유짐",
    "name": "더블유짐",
    "address": "경기 고양시 일산동구 중산로 244",
    "latitude": 37.69381123,
    "longitude": 126.7809118,
    "source_ref": "kakao:385339221",
    "raw_name": "더블유짐"
  },
  {
    "brand": "더블유짐",
    "name": "더블유짐 크라브마가",
    "address": "서울 강서구 공항대로 213",
    "latitude": 37.55969956,
    "longitude": 126.83136557,
    "source_ref": "kakao:1520630680",
    "raw_name": "더블유짐 크라브마가"
  },
  {
    "brand": "더블유짐",
    "name": "더블유짐 야탑9호점",
    "address": "경기 성남시 분당구 장미로 78",
    "latitude": 37.41350996,
    "longitude": 127.12956447,
    "source_ref": "kakao:1502448679",
    "raw_name": "더블유짐 야탑9호점"
  },
  {
    "brand": "더블유짐",
    "name": "제이더블유짐",
    "address": "경기 부천시 오정구 역곡로 491",
    "latitude": 37.52858565,
    "longitude": 126.81585954,
    "source_ref": "kakao:1790193467",
    "raw_name": "제이더블유짐"
  },
  {
    "brand": "더블유짐",
    "name": "W짐",
    "address": "경기 파주시 금빛로 24",
    "latitude": 37.7519888,
    "longitude": 126.7668832,
    "source_ref": "kakao:284746168",
    "raw_name": "W짐"
  },
  {
    "brand": "더블유짐",
    "name": "더블유짐 하이앤드지점",
    "address": "경기 수원시 장안구 만석로19번길 41-9",
    "latitude": 37.29676138,
    "longitude": 126.98268868,
    "source_ref": "kakao:691122298",
    "raw_name": "더블유짐 하이앤드지점"
  },
  {
    "brand": "더블유짐",
    "name": "더블유짐 천천3호점",
    "address": "경기 수원시 장안구 만석로19번길 29",
    "latitude": 37.29660826,
    "longitude": 126.98311843,
    "source_ref": "kakao:601255250",
    "raw_name": "더블유짐 천천3호점"
  },
  {
    "brand": "더블유짐",
    "name": "더블유짐 율전15호점",
    "address": "경기 수원시 장안구 서부로2105번길 13",
    "latitude": 37.2966749,
    "longitude": 126.96945119,
    "source_ref": "kakao:738105608",
    "raw_name": "더블유짐 율전15호점"
  },
  {
    "brand": "더블유짐",
    "name": "더블유짐헬스",
    "address": "경기 안산시 상록구 영화6길 1",
    "latitude": 37.28072048,
    "longitude": 126.84956599,
    "source_ref": "kakao:371517079",
    "raw_name": "더블유짐헬스"
  },
  {
    "brand": "더블유짐",
    "name": "더블유짐 천천푸르지오14호점",
    "address": "경기 수원시 장안구 화산로125번길 5",
    "latitude": 37.29426153,
    "longitude": 126.98030845,
    "source_ref": "kakao:154941206",
    "raw_name": "더블유짐 천천푸르지오14호점"
  },
  {
    "brand": "더블유짐",
    "name": "더블유짐 율전12호점",
    "address": "경기 수원시 장안구 서부로2105번길 13",
    "latitude": 37.2966749,
    "longitude": 126.96945119,
    "source_ref": "kakao:2145541450",
    "raw_name": "더블유짐 율전12호점"
  },
  {
    "brand": "더블유짐",
    "name": "더블유짐 천천16호점",
    "address": "경기 수원시 장안구 화산로125번길 16",
    "latitude": 37.29428303,
    "longitude": 126.97958665,
    "source_ref": "kakao:1409987991",
    "raw_name": "더블유짐 천천16호점"
  },
  {
    "brand": "더블유짐",
    "name": "뉴더블유짐",
    "address": "인천 연수구 한나루로 157",
    "latitude": 37.42399332,
    "longitude": 126.65467601,
    "source_ref": "kakao:821097938",
    "raw_name": "뉴더블유짐"
  },
  {
    "brand": "더블유짐",
    "name": "더블유짐",
    "address": "경기 오산시 남부대로 330-17",
    "latitude": 37.13442731,
    "longitude": 127.07232817,
    "source_ref": "kakao:1742110472",
    "raw_name": "더블유짐"
  },
  {
    "brand": "더블유짐",
    "name": "엠더블유짐",
    "address": "경기 화성시 동탄구 삼성1로5길 6",
    "latitude": 37.22537325,
    "longitude": 127.07269888,
    "source_ref": "kakao:1248022936",
    "raw_name": "엠더블유짐"
  },
  {
    "brand": "더블유짐",
    "name": "제이더블유짐 동탄점",
    "address": "경기 화성시 동탄구 동탄대로6길 19",
    "latitude": 37.16872959,
    "longitude": 127.10901359,
    "source_ref": "kakao:1575709111",
    "raw_name": "제이더블유짐 동탄점"
  },
  {
    "brand": "더블유짐",
    "name": "W짐",
    "address": "충남 천안시 서북구 천안대로 1024-5",
    "latitude": 36.83356111,
    "longitude": 127.15268929,
    "source_ref": "kakao:954629277",
    "raw_name": "W짐"
  },
  {
    "brand": "더블유짐",
    "name": "W짐",
    "address": "충남 보령시 터미널길 18-17",
    "latitude": 36.34362562,
    "longitude": 126.59012219,
    "source_ref": "kakao:1990558582",
    "raw_name": "W짐"
  },
  {
    "brand": "더블유짐",
    "name": "더블유짐휘트니스",
    "address": "전북특별자치도 전주시 완산구 온고을로 120",
    "latitude": 35.83430584,
    "longitude": 127.10967778,
    "source_ref": "kakao:1934073640",
    "raw_name": "더블유짐휘트니스"
  },
  {
    "brand": "더블유짐",
    "name": "지더블유 짐",
    "address": "전북특별자치도 전주시 완산구 천잠로 58",
    "latitude": 35.79461313,
    "longitude": 127.10595384,
    "source_ref": "kakao:453713128",
    "raw_name": "지더블유 짐"
  }
]