[
  {
    "brand": "헬스보이짐",
    "name": "헬스보이짐앤필라걸 서울시청점",
    "address": "서울 중구 무교로 21",
    "latitude": 37.56785135,
    "longitude": 126.97874252,
    "source_ref": "kakao:1914554509"
  },
  {
    "brand": "헬스보이짐",
    "name": "헬스보이짐 을지로점",
    "address": "서울 중구 마른내로 28",
    "latitude": 37.56433002,
    "longitude": 126.99080923,
    "source_ref": "kakao:2103654660"
  },
  {
    "brand": "헬스보이짐",
    "name": "헬스보이짐 신촌점",
    "address": "서울 서대문구 신촌로 109",
    "latitude": 37.55605749,
    "longitude": 126.93825664,
    "source_ref": "kakao:1603389858"
  },
  {
    "brand": "헬스보이짐",
    "name": "헬스보이짐필라걸 홍대점",
    "address": "서울 마포구 양화로 176",
    "latitude": 37.55719213,
    "longitude": 126.92475834,
    "source_ref": "kakao:672588812"
  },
  {
    "brand": "헬스보이짐",
    "name": "헬스보이짐 여의도점",
    "address": "서울 영등포구 은행로 37",
    "latitude": 37.5293859,
    "longitude": 126.92260732,
    "source_ref": "kakao:1387673231"
  },
  {
    "brand": "헬스보이짐",
    "name": "헬스보이짐 여의도역점",
    "address": "서울 영등포구 국제금융로6길 26",
    "latitude": 37.52195451,
    "longitude": 126.92697361,
    "source_ref": "kakao:1717322178"
  },
  {
    "brand": "헬스보이짐",
    "name": "헬스보이짐 영등포점",
    "address": "서울 영등포구 경인로 775",
    "latitude": 37.51480602,
    "longitude": 126.89894013,
    "source_ref": "kakao:356385101"
  },
  {
    "brand": "헬스보이짐",
    "name": "헬스보이짐 장안점",
    "address": "서울 동대문구 장한로 119",
    "latitude": 37.5716258,
    "longitude": 127.0698374,
    "source_ref": "kakao:1970633601"
  },
  {
    "brand": "헬스보이짐",
    "name": "헬스보이짐 학동역점",
    "address": "서울 강남구 학동로 171",
    "latitude": 37.5139878,
    "longitude": 127.02954452,
    "source_ref": "kakao:29502748"
  },
  {
    "brand": "헬스보이짐",
    "name": "헬스보이짐 상암MBC점",
    "address": "서울 마포구 성암로 267",
    "latitude": 37.58107894,
    "longitude": 126.89082388,
    "source_ref": "kakao:1717697109"
  },
  {
    "brand": "헬스보이짐",
    "name": "헬스보이짐&필라걸 당산역점",
    "address": "서울 영등포구 양평로 47",
    "latitude": 37.53387115,
    "longitude": 126.90097923,
    "source_ref": "kakao:1903326665"
  },
  {
    "brand": "헬스보이짐",
    "name": "헬스보이짐앤필라걸 불광점",
    "address": "서울 은평구 통일로 742",
    "latitude": 37.61182398,
    "longitude": 126.92936166,
    "source_ref": "kakao:482629043"
  },
  {
    "brand": "헬스보이짐",
    "name": "헬스보이짐 강남역점",
    "address": "서울 강남구 테헤란로2길 27",
    "latitude": 37.49649024,
    "longitude": 127.02969594,
    "source_ref": "kakao:465737262"
  },
  {
    "brand": "헬스보이짐",
    "name": "헬스보이짐 강남고속터미널점",
    "address": "서울 서초구 신반포로 194",
    "latitude": 37.50446773,
    "longitude": 127.00589006,
    "source_ref": "kakao:29812799"
  },
  {
    "brand": "헬스보이짐",
    "name": "헬스보이짐 선릉점",
    "address": "서울 강남구 테헤란로 317",
    "latitude": 37.50397247,
    "longitude": 127.04575848,
    "source_ref": "kakao:134212794"
  },
  {
    "brand": "헬스보이짐",
    "name": "헬스보이짐앤필라걸 신논현점",
    "address": "서울 서초구 사평대로56길 7",
    "latitude": 37.50322034,
    "longitude": 127.02356776,
    "source_ref": "kakao:882998542"
  },
  {
    "brand": "헬스보이짐",
    "name": "헬스보이짐 문래역점",
    "address": "서울 영등포구 당산로 42",
    "latitude": 37.51823438,
    "longitude": 126.89587569,
    "source_ref": "kakao:1041771379"
  },
  {
    "brand": "헬스보이짐",
    "name": "헬스보이짐 건대스타시티몰점",
    "address": "서울 광진구 아차산로 272",
    "latitude": 37.53855729,
    "longitude": 127.07299166,
    "source_ref": "kakao:29538387"
  },
  {
    "brand": "헬스보이짐",
    "name": "헬스보이짐 가양역점",
    "address": "서울 강서구 양천로 476",
    "latitude": 37.56159928,
    "longitude": 126.85327004,
    "source_ref": "kakao:434388160"
  },
  {
    "brand": "헬스보이짐",
    "name": "헬스보이짐 잠실점",
    "address": "서울 송파구 올림픽로 240",
    "latitude": 37.51131078,
    "longitude": 127.0981404,
    "source_ref": "kakao:1645271768"
  },
  {
    "brand": "헬스보이짐",
    "name": "헬스보이짐&골프인 가산역점",
    "address": "서울 금천구 벚꽃로 278",
    "latitude": 37.47949668,
    "longitude": 126.88440653,
    "source_ref": "kakao:1903821587"
  },
  {
    "brand": "헬스보이짐",
    "name": "헬스보이짐 철산점",
    "address": "경기 광명시 오리로 865",
    "latitude": 37.47521706,
    "longitude": 126.86581716,
    "source_ref": "kakao:1186505409"
  },
  {
    "brand": "헬스보이짐",
    "name": "헬스보이짐 가락점",
    "address": "서울 송파구 송파대로 260",
    "latitude": 37.49314191,
    "longitude": 127.11885535,
    "source_ref": "kakao:1427094285"
  },
  {
    "brand": "헬스보이짐",
    "name": "헬스보이짐필라걸 양천 향교역점",
    "address": "서울 강서구 마곡동로10길 23",
    "latitude": 37.56860085,
    "longitude": 126.83937543,
    "source_ref": "kakao:1646813306"
  },
  {
    "brand": "헬스보이짐",
    "name": "헬스보이짐&필라걸 고양점",
    "address": "경기 고양시 덕양구 중앙로558번길 21",
    "latitude": 37.62467196,
    "longitude": 126.83594033,
    "source_ref": "kakao:921890338"
  },
  {
    "brand": "헬스보이짐",
    "name": "헬스보이짐 필라걸 문정역점",
    "address": "서울 송파구 법원로 127",
    "latitude": 37.48631595,
    "longitude": 127.11878348,
    "source_ref": "kakao:1517482457"
  },
  {
    "brand": "헬스보이짐",
    "name": "헬스보이짐 판교역점",
    "address": "경기 성남시 분당구 대왕판교로606번길 58",
    "latitude": 37.39542042,
    "longitude": 127.11355455,
    "source_ref": "kakao:1537973696"
  },
  {
    "brand": "헬스보이짐",
    "name": "헬스보이짐&필라걸& 골프인 부천점",
    "address": "경기 부천시 원미구 부천로 7",
    "latitude": 37.48506648,
    "longitude": 126.78209721,
    "source_ref": "kakao:941511727"
  },
  {
    "brand": "헬스보이짐",
    "name": "헬스보이짐 주엽점",
    "address": "경기 고양시 일산서구 중앙로 1496",
    "latitude": 37.67315472,
    "longitude": 126.75533581,
    "source_ref": "kakao:1840819954"
  },
  {
    "brand": "헬스보이짐",
    "name": "헬스보이짐 수지점",
    "address": "경기 용인시 수지구 신봉2로 2",
    "latitude": 37.32316608,
    "longitude": 127.07802914,
    "source_ref": "kakao:2103809050"
  },
  {
    "brand": "헬스보이짐",
    "name": "헬스보이짐앤필라걸 수내점",
    "address": "경기 성남시 분당구 내정로173번길 49",
    "latitude": 37.37737702,
    "longitude": 127.11584077,
    "source_ref": "kakao:1710415068"
  },
  {
    "brand": "헬스보이짐",
    "name": "헬스보이짐 천천점",
    "address": "경기 수원시 장안구 만석로19번길 25-10",
    "latitude": 37.29641351,
    "longitude": 126.98225003,
    "source_ref": "kakao:682237825"
  },
  {
    "brand": "헬스보이짐",
    "name": "헬스보이짐PT&필라걸 &골프인 분당정자점",
    "address": "경기 성남시 분당구 성남대로331번길 13",
    "latitude": 37.3652861,
    "longitude": 127.10630805,
    "source_ref": "kakao:1391952956"
  },
  {
    "brand": "헬스보이짐",
    "name": "헬스보이짐 상현점",
    "address": "경기 용인시 수지구 광교중앙로296번길 10",
    "latitude": 37.29659055,
    "longitude": 127.07002782,
    "source_ref": "kakao:645718045"
  },
  {
    "brand": "헬스보이짐",
    "name": "헬스보이짐앤필라걸 분당미금점",
    "address": "경기 성남시 분당구 성남대로 170",
    "latitude": 37.35118481,
    "longitude": 127.10950936,
    "source_ref": "kakao:1451212601"
  },
  {
    "brand": "헬스보이짐",
    "name": "헬스보이짐 앤 골프인 죽전점",
    "address": "경기 용인시 기흥구 보정로 115",
    "latitude": 37.31986134,
    "longitude": 127.11523911,
    "source_ref": "kakao:1899195538"
  },
  {
    "brand": "헬스보이짐",
    "name": "헬스보이짐앤필라걸 배곧점",
    "address": "경기 시흥시 배곧3로 96",
    "latitude": 37.36981828,
    "longitude": 126.73001107,
    "source_ref": "kakao:78639694"
  },
  {
    "brand": "헬스보이짐",
    "name": "헬스보이짐 인계점",
    "address": "경기 수원시 팔달구 권광로 181",
    "latitude": 37.26381802,
    "longitude": 127.03231563,
    "source_ref": "kakao:1789484658"
  },
  {
    "brand": "헬스보이짐",
    "name": "헬스보이짐앤필라걸 광교점",
    "address": "경기 수원시 영통구 센트럴타운로 85",
    "latitude": 37.29034314,
    "longitude": 127.04966388,
    "source_ref": "kakao:807581173"
  },
  {
    "brand": "헬스보이짐",
    "name": "헬스보이짐x필라걸 상록수점",
    "address": "경기 안산시 상록구 용신로 364",
    "latitude": 37.3014815,
    "longitude": 126.86233326,
    "source_ref": "kakao:1938617998"
  },
  {
    "brand": "헬스보이짐",
    "name": "헬스보이짐 매탄점",
    "address": "경기 수원시 영통구 효원로 400",
    "latitude": 37.25806238,
    "longitude": 127.04538499,
    "source_ref": "kakao:2103670488"
  },
  {
    "brand": "헬스보이짐",
    "name": "헬스보이짐&필라걸 안산중앙점",
    "address": "경기 안산시 단원구 고잔로 108",
    "latitude": 37.31862979,
    "longitude": 126.8379865,
    "source_ref": "kakao:941807714"
  },
  {
    "brand": "헬스보이짐",
    "name": "헬스보이짐 권선점",
    "address": "경기 수원시 권선구 동수원로 232",
    "latitude": 37.25025754,
    "longitude": 127.03471293,
    "source_ref": "kakao:1120541295"
  },
  {
    "brand": "헬스보이짐",
    "name": "헬스보이짐앤필라걸 망포점",
    "address": "경기 수원시 영통구 태장로71번길 8",
    "latitude": 37.23978274,
    "longitude": 127.0543066,
    "source_ref": "kakao:579665885"
  },
  {
    "brand": "헬스보이짐",
    "name": "헬스보이짐 영통판타지움점",
    "address": "경기 수원시 영통구 덕영대로 1566",
    "latitude": 37.24513308,
    "longitude": 127.06179535,
    "source_ref": "kakao:453560188"
  },
  {
    "brand": "헬스보이짐",
    "name": "헬스보이짐필라걸 골프인 병점점",
    "address": "경기 화성시 병점구 효행로 1051",
    "latitude": 37.2146287,
    "longitude": 127.04197345,
    "source_ref": "kakao:999751874"
  },
  {
    "brand": "헬스보이짐",
    "name": "헬스보이짐 평택점",
    "address": "경기 평택시 중앙2로 13",
    "latitude": 36.99201437,
    "longitude": 127.08860832,
    "source_ref": "kakao:789357036"
  },
  {
    "brand": "헬스보이짐",
    "name": "헬스보이짐 비전점",
    "address": "경기 평택시 경기대로 271",
    "latitude": 36.99499632,
    "longitude": 127.11272837,
    "source_ref": "kakao:806534666"
  },
  {
    "brand": "헬스보이짐",
    "name": "헬스보이짐 신부점",
    "address": "충남 천안시 동남구 만남로 6",
    "latitude": 36.81847841,
    "longitude": 127.15265709,
    "source_ref": "kakao:890509019"
  },
  {
    "brand": "헬스보이짐",
    "name": "헬스보이짐 쌍용점",
    "address": "충남 천안시 서북구 월봉로 128",
    "latitude": 36.8021265,
    "longitude": 127.11905182,
    "source_ref": "kakao:696866062"
  },
  {
    "brand": "헬스보이짐",
    "name": "헬스보이짐 복대동점",
    "address": "충북 청주시 흥덕구 대농로 39",
    "latitude": 36.64233303,
    "longitude": 127.42690642,
    "source_ref": "kakao:1016106726"
  },
  {
    "brand": "헬스보이짐",
    "name": "헬스보이짐 둔산점",
    "address": "대전 서구 대덕대로 226",
    "latitude": 36.35259741,
    "longitude": 127.37969353,
    "source_ref": "kakao:1188511862"
  },
  {
    "brand": "헬스보이짐",
    "name": "헬스보이짐 탄방점",
    "address": "대전 서구 문예로 11",
    "latitude": 36.34764613,
    "longitude": 127.38983805,
    "source_ref": "kakao:1263199669"
  },
  {
    "brand": "헬스보이짐",
    "name": "헬스보이짐 관저점",
    "address": "대전 서구 관저중로 70",
    "latitude": 36.29814944,
    "longitude": 127.3352696,
    "source_ref": "kakao:1512918731"
  },
  {
    "brand": "헬스보이짐",
    "name": "헬스보이짐 테크노밸리점",
    "address": "대전 유성구 테크노중앙로 54",
    "latitude": 36.42607568,
    "longitude": 127.39124788,
    "source_ref": "kakao:702042328"
  },
  {
    "brand": "헬스보이짐",
    "name": "헬스보이짐 송촌점",
    "address": "대전 대덕구 동춘당로114번길 9",
    "latitude": 36.36699804,
    "longitude": 127.43817804,
    "source_ref": "kakao:1321799685"
  },
  {
    "brand": "헬스보이짐",
    "name": "헬스보이짐 가오점",
    "address": "대전 동구 동구청로 89-2",
    "latitude": 36.30627682,
    "longitude": 127.45696526,
    "source_ref": "kakao:1287753318"
  },
  {
    "brand": "헬스보이짐",
    "name": "헬스보이짐 목원대점",
    "address": "대전 서구 동서대로 682",
    "latitude": 36.33181531,
    "longitude": 127.33863371,
    "source_ref": "kakao:1773299130"
  },
  {
    "brand": "헬스보이짐",
    "name": "헬스보이짐 대전시청점",
    "address": "대전 서구 둔산서로 59",
    "latitude": 36.35182767,
    "longitude": 127.38256072,
    "source_ref": "kakao:1538218693"
  },
  {
    "brand": "헬스보이짐",
    "name": "헬스보이짐 대전터미널점",
    "address": "대전 동구 동서대로 1701",
    "latitude": 36.35006779,
    "longitude": 127.43840622,
    "source_ref": "kakao:955183666"
  },
  {
    "brand": "헬스보이짐",
    "name": "헬스보이짐&필라걸 도안점",
    "address": "대전 서구 계백로 1149",
    "latitude": 36.30501853,
    "longitude": 127.35087757,
    "source_ref": "kakao:618854081"
  },
  {
    "brand": "헬스보이짐",
    "name": "헬스보이짐&필라걸&PT 월평점",
    "address": "대전 서구 대덕대로 325",
    "latitude": 36.36191438,
    "longitude": 127.37892654,
    "source_ref": "kakao:1354534864"
  },
  {
    "brand": "헬스보이짐",
    "name": "헬스보이짐&필라걸 태평점",
    "address": "대전 중구 태평로 83",
    "latitude": 36.32411444,
    "longitude": 127.39373667,
    "source_ref": "kakao:2107849991"
  },
  {
    "brand": "헬스보이짐",
    "name": "헬스보이짐 NC대전유성점",
    "address": "대전 유성구 계룡로 119",
    "latitude": 36.35373903,
    "longitude": 127.34403948,
    "source_ref": "kakao:1014051574"
  },
  {
    "brand": "헬스보이짐",
    "name": "헬스보이짐앤필라걸 용문역점",
    "address": "대전 서구 계룡로 636",
    "latitude": 36.33853659,
    "longitude": 127.39245702,
    "source_ref": "kakao:1338764187"
  },
  {
    "brand": "헬스보이짐",
    "name": "헬스보이짐x필라걸x골프인 대전터미널점",
    "address": "대전 동구 동서대로 1701",
    "latitude": 36.35006603,
    "longitude": 127.43839507,
    "source_ref": "kakao:1787152397"
  },
  {
    "brand": "헬스보이짐",
    "name": "헬스보이짐&사우나 송천점",
    "address": "전북특별자치도 전주시 덕진구 송천로 1",
    "latitude": 35.85389794,
    "longitude": 127.11856009,
    "source_ref": "kakao:245853939"
  },
  {
    "brand": "헬스보이짐",
    "name": "헬스보이짐 롯데대구역점",
    "address": "대구 북구 태평로 161",
    "latitude": 35.8755061,
    "longitude": 128.59541133,
    "source_ref": "kakao:2069756563"
  },
  {
    "brand": "헬스보이짐",
    "name": "헬스보이짐 당리점",
    "address": "부산 사하구 낙동대로 381",
    "latitude": 35.10244838,
    "longitude": 128.97619185,
    "source_ref": "kakao:867756739"
  },
  {
    "brand": "헬스보이짐",
    "name": "헬스보이짐 서면점",
    "address": "부산 부산진구 중앙대로 686",
    "latitude": 35.1539314,
    "longitude": 129.05957731,
    "source_ref": "kakao:465615867"
  },
  {
    "brand": "헬스보이짐",
    "name": "헬스보이짐 하단점",
    "address": "부산 사하구 낙동남로 1403",
    "latitude": 35.10659222,
    "longitude": 128.96520712,
    "source_ref": "kakao:2019136889"
  },
  {
    "brand": "헬스보이짐",
    "name": "헬스보이짐앤골프인 롯데마트창원중앙점",
    "address": "경남 창원시 성산구 중앙대로 123",
    "latitude": 35.22555429,
    "longitude": 128.68027688,
    "source_ref": "kakao:940357600"
  },
  {
    "brand": "헬스보이짐",
    "name": "헬스보이짐 롯데부암점",
    "address": "부산 부산진구 신천대로 241",
    "latitude": 35.16330725,
    "longitude": 129.04931622,
    "source_ref": "kakao:551062907"
  },
  {
    "brand": "헬스보이짐",
    "name": "헬스보이짐 앤 골프인 삼산점",
    "address": "울산 남구 화합로 185",
    "latitude": 35.54134591,
    "longitude": 129.33889958,
    "source_ref": "kakao:621693352"
  },
  {
    "brand": "헬스보이짐",
    "name": "헬스보이짐 롯데광복점",
    "address": "부산 중구 중앙대로 2",
    "latitude": 35.09777924,
    "longitude": 129.03662176,
    "source_ref": "kakao:1694180151"
  }
]