[
  {
    "brand": "휘트니스M",
    "name": "휘트니스엠 충정로점",
    "address": "서울 중구 서소문로 38",
    "latitude": 37.5604044,
    "longitude": 126.96621551,
    "source_ref": "kakao:2125637051"
  },
  {
    "brand": "휘트니스M",
    "name": "휘트니스엠 공덕점",
    "address": "서울 마포구 백범로 199",
    "latitude": 37.54345746,
    "longitude": 126.95285953,
    "source_ref": "kakao:26426940"
  },
  {
    "brand": "휘트니스M",
    "name": "휘트니스엠 공덕2호점",
    "address": "서울 마포구 마포대로 130",
    "latitude": 37.5459731,
    "longitude": 126.95298921,
    "source_ref": "kakao:960856265"
  },
  {
    "brand": "휘트니스M",
    "name": "휘트니스엠 롯데캐슬점",
    "address": "서울 마포구 마포대로 109",
    "latitude": 37.545119,
    "longitude": 126.95088615,
    "source_ref": "kakao:264313981"
  },
  {
    "brand": "휘트니스M",
    "name": "휘트니스엠 마포점",
    "address": "서울 마포구 마포대로 33",
    "latitude": 37.54002238,
    "longitude": 126.94548431,
    "source_ref": "kakao:1367003409"
  },
  {
    "brand": "휘트니스M",
    "name": "휘트니스엠 상수점",
    "address": "서울 마포구 독막로 100",
    "latitude": 37.54734962,
    "longitude": 126.92474786,
    "source_ref": "kakao:181246459"
  },
  {
    "brand": "휘트니스M",
    "name": "휘트니스엠 학동점",
    "address": "서울 강남구 학동로 208",
    "latitude": 37.51399531,
    "longitude": 127.03183954,
    "source_ref": "kakao:671133906"
  },
  {
    "brand": "휘트니스M",
    "name": "휘트니스엠 압구정점",
    "address": "서울 강남구 논현로 841",
    "latitude": 37.52396234,
    "longitude": 127.02774975,
    "source_ref": "kakao:331945892"
  },
  {
    "brand": "휘트니스M",
    "name": "휘트니스엠 강남구청점",
    "address": "서울 강남구 선릉로131길 8",
    "latitude": 37.51797517,
    "longitude": 127.04027635,
    "source_ref": "kakao:311271787"
  },
  {
    "brand": "휘트니스M",
    "name": "휘트니스엠 선릉점",
    "address": "서울 강남구 테헤란로52길 15",
    "latitude": 37.50314091,
    "longitude": 127.04786719,
    "source_ref": "kakao:1499735916"
  },
  {
    "brand": "휘트니스M",
    "name": "휘트니스엠 문래점",
    "address": "서울 영등포구 선유로 70",
    "latitude": 37.52016274,
    "longitude": 126.89014575,
    "source_ref": "kakao:1240504027"
  },
  {
    "brand": "휘트니스M",
    "name": "휘트니스엠 오목교점",
    "address": "서울 양천구 신목로 88",
    "latitude": 37.52237139,
    "longitude": 126.87503037,
    "source_ref": "kakao:1230453053"
  },
  {
    "brand": "휘트니스M",
    "name": "휘트니스엠 프리미엄 양재2호점",
    "address": "서울 서초구 남부순환로 2567",
    "latitude": 37.48452447,
    "longitude": 127.03119499,
    "source_ref": "kakao:276181906"
  },
  {
    "brand": "휘트니스M",
    "name": "휘트니스엠 양재점",
    "address": "서울 강남구 강남대로 240",
    "latitude": 37.48531106,
    "longitude": 127.03440417,
    "source_ref": "kakao:1913118961"
  },
  {
    "brand": "휘트니스M",
    "name": "휘트니스엠 길동점",
    "address": "서울 강동구 진황도로 99",
    "latitude": 37.53608064,
    "longitude": 127.13747003,
    "source_ref": "kakao:1715105035"
  },
  {
    "brand": "휘트니스M",
    "name": "휘트니스엠 광명하안점",
    "address": "경기 광명시 하안로288번길 15",
    "latitude": 37.46222302,
    "longitude": 126.88128856,
    "source_ref": "kakao:26949626"
  },
  {
    "brand": "휘트니스M",
    "name": "휘트니스엠 천호점",
    "address": "서울 강동구 올림픽로 664",
    "latitude": 37.54060236,
    "longitude": 127.1248507,
    "source_ref": "kakao:1330798215"
  },
  {
    "brand": "휘트니스M",
    "name": "휘트니스M",
    "address": "경남 양산시 덕계로 105",
    "latitude": 35.37674329,
    "longitude": 129.15343961,
    "source_ref": "kakao:1137737688"
  },
  {
    "brand": "휘트니스M",
    "name": "휘트니스엠 외대점",
    "address": "서울 동대문구 이문로 136",
    "latitude": 37.59847982,
    "longitude": 127.06189616,
    "source_ref": "kakao:1624018741"
  }
]